timestamp,gps_speed,acc_n_g,gps_t_acc,course,radius,latitude,longitude,InlineAcc,LateralAcc,VerticalAcc,RollRate,PitchRate,YawRate,Internal Battery
0,4.5036,0,0,-3.1387,10000,51.41732533,21.14855027,0.21,-0.11,-1.75,-5.3,-0.9,-3.3,4
0.05,4.5036,0,0,-3.1387,10000,51.41732533,21.14855027,0.21,-0.11,-1.76,0.2,-0.9,-2,4
0.1,4.5036,0,0,-3.1387,10000,51.41732533,21.14855027,0.21,-0.09,-1.79,2.1,-1.2,-0.9,4
0.15,4.8391,-0.0988,0.2412,-4.9165,1.7329,51.41732591,21.14854984,0.23,-0.05,-1.74,-0.4,-1.3,-1,4
0.2,5.8569,-0.1039,0.5839,-7.7547,2.0801,51.41732765,21.14854883,0.17,-0.08,-1.75,-4.6,-1.4,-2,4
0.25,6.6021,-0.13,0.3819,-9.6389,2.4382,51.41732908,21.14854797,0.18,-0.09,-1.76,-4.2,-1,-3.3,4
0.3,7.4381,0.0114,0.4803,-9.5492,30.2758,51.41733079,21.14854731,0.24,-0.04,-1.78,2.3,0.1,-4.2,4
0.35,8.347,0.1365,0.5358,-8.4509,3.9633,51.41733269,21.14854679,0.3,-0.01,-1.83,9.6,0.2,-4.9,4
0.4,9.2923,0.2509,0.5222,-4.8948,2.4251,51.41733474,21.14854677,0.32,0,-1.83,13.2,-0.7,-5.6,4
0.45,10.0308,0.0316,0.4066,-4.2521,23.0594,51.41733663,21.14854646,0.25,-0.06,-1.75,17.8,-0.7,-5.3,4
0.5,10.6909,-0.0357,0.3703,-4.587,23.727,51.41733848,21.14854594,0.19,-0.08,-1.72,24.4,-0.7,-3.1,4
0.55,11.2352,0.0166,0.3092,-4.4598,58.691,51.41734035,21.14854557,0.11,-0.11,-1.76,28.3,0.4,0.6,4
0.6,11.7021,0.0335,0.2521,-4.156,31.1282,51.41734222,21.14854519,0.24,-0.11,-1.78,24.8,0.2,4.7,4
0.65,12.1037,0.0538,0.229,-3.729,20.8564,51.41734395,21.14854496,0.18,-0.13,-1.69,13.9,0.3,8.1,4
0.7,12.7925,0.1951,0.4185,-1.8426,6.2647,51.41734601,21.14854511,0.1,-0.1,-1.77,2.7,1.8,10.8,4
0.75,13.2819,0.0161,0.2708,-1.1479,82.5062,51.41734802,21.14854508,0.1,-0.07,-1.74,-9.1,2.7,11.6,4
0.8,13.8979,-0.0139,0.2649,-1.658,106.5022,51.41735027,21.14854434,0.26,-0.07,-1.63,-17.9,3.1,10.3,4
0.85,14.2762,-0.033,0.2858,-2.6231,47.1799,51.41735244,21.14854366,0.63,-0.07,-1.54,-19.8,3.2,7.3,4
0.9,14.9564,-0.03,0.3255,-2.1265,56.6207,51.41735477,21.14854335,0.91,-0.02,-1.58,-15.9,2.4,3.4,4
0.95,15.4205,-0.0665,0.3515,-2.8829,27.3763,51.41735703,21.1485426,0.91,0.01,-1.62,-8.2,2.1,-1.7,4
1,16.0405,-0.0913,0.383,-3.4084,21.5644,51.41735955,21.14854179,0.84,-0.01,-1.62,3,1.2,-6,4
1.05,16.6851,-0.0949,0.4018,-4.7459,22.4844,51.41736227,21.14854057,0.8,-0.04,-1.45,14.6,-0.3,-7.1,4
1.1,17.4282,-0.0976,0.4249,-5.3045,23.8398,51.41736505,21.14853966,0.41,-0.05,-1.41,20.2,-0.8,-4.9,4
1.15,18.3002,-0.0854,0.4217,-5.3554,29.8549,51.417368,21.14853879,0.14,-0.03,-1.47,17.3,1.7,-1.8,4
1.2,19.2365,-0.0663,0.4306,-5.2078,42.0918,51.41737113,21.14853796,0.43,-0.04,-1.38,11.8,4.2,0.5,4
1.25,20.0456,-0.0553,0.4233,-5.5454,54.8421,51.41737436,21.14853689,0.91,-0.07,-1.21,9.7,-0.1,2,4
1.3,20.6056,-0.0587,0.3873,-6.0307,55.2145,51.41737737,21.14853581,1,-0.19,-1.08,12.2,-7.6,4.9,4
1.35,21.1474,-0.0697,0.3337,-6.458,49.2382,51.41738042,21.14853489,0.54,-0.25,-1.06,8.6,-15,8.1,4
1.4,21.6125,-0.0729,0.3,-6.8864,49.5133,51.41738355,21.14853382,0.68,-0.18,-1.23,7,-13.3,10.2,4
1.45,22.1359,-0.0951,0.2756,-7.4496,39.8285,51.4173868,21.14853269,0.78,-0.1,-1.62,7.1,-2.2,13.2,4
1.5,22.6143,-0.1014,0.2766,-7.7438,38.9878,51.41739003,21.14853164,0.55,-0.07,-1.82,1.8,2.9,15.8,4
1.55,23.0865,-0.0855,0.2949,-7.8548,48.2425,51.41739322,21.1485309,0.25,-0.06,-1.7,-7.4,2.5,15.8,4
1.6,23.6483,-0.0504,0.3183,-8.2158,85.6384,51.41739658,21.14852995,0.24,-0.03,-1.66,-12.4,2.6,14.8,4
1.65,24.0147,-0.0082,0.3602,-8.5142,547.6348,51.41739987,21.14852903,0.23,0.01,-1.62,-14.7,2.3,12.4,4
1.7,24.8518,0.0284,0.4048,-9.0411,168.4223,51.41740365,21.14852784,0.32,0.03,-1.63,-14.2,2.2,8.3,4
1.75,26.0019,0.0441,0.4328,-8.5173,116.9858,51.41740782,21.14852682,0.19,0,-1.69,-12.9,1.5,3.2,4
1.8,26.8293,0.0552,0.4479,-8.1317,99.216,51.41741176,21.14852597,0.23,-0.02,-1.77,-10.6,1.7,-2.5,4
1.85,27.471,0.0632,0.4579,-6.9133,91.5078,51.41741567,21.14852548,0.41,-0.06,-1.76,-5.7,1.9,-7,4
1.9,28.1762,0.0556,0.4545,-6.9907,109.761,51.41741976,21.14852457,0.37,-0.08,-1.61,-0.2,1.4,-9.4,4
1.95,28.8991,0.0413,0.4479,-7.0419,155.6047,51.41742383,21.14852391,0.3,-0.07,-1.48,4,1.5,-9.4,4
2,29.7217,0.025,0.4327,-7.4177,272.0205,51.41742803,21.14852265,0.34,-0.08,-1.49,5.9,0.6,-7.9,4
2.05,30.4501,0.0105,0.4061,-7.5063,680.386,51.41743219,21.1485215,0.45,-0.14,-1.53,6,1.3,-6.1,4
2.1,31.0852,-0.0189,0.3794,-7.3983,396.5662,51.41743643,21.14852071,0.5,-0.08,-1.56,3.9,1.3,-4,4
2.15,31.7595,-0.0432,0.3361,-7.4645,181.4221,51.41744073,21.14851974,0.54,-0.03,-1.52,-1,1.9,-3.7,4
2.2,32.3704,-0.0578,0.3272,-7.5159,140.3,51.41744511,21.14851885,0.71,-0.02,-1.47,-2.5,3.2,-5.5,4
2.25,32.9827,-0.0409,0.3168,-7.6595,205.9119,51.41744949,21.14851788,0.8,-0.1,-1.5,-1.1,3.4,-8.2,4
2.3,33.4913,-0.0122,0.2928,-7.7022,711.5849,51.4174539,21.14851699,0.86,-0.12,-1.44,1,1.3,-10.7,4
2.35,33.947,0.0179,0.2896,-7.6484,503.4264,51.41745825,21.14851586,0.86,-0.11,-1.35,3.4,-0.2,-13.7,4
2.4,34.3206,0.0381,0.2861,-7.5344,240.9584,51.41746268,21.14851487,0.86,-0.09,-1.31,7.9,0,-16.7,4
2.45,34.7449,0.044,0.2952,-7.7437,214.5426,51.4174672,21.14851392,0.8,-0.06,-1.34,13.7,-0.4,-18,4
2.5,35.304,0.0505,0.3045,-7.4742,192.854,51.41747182,21.148513,0.7,-0.07,-1.32,18.4,-1.2,-17.3,4
2.55,35.9941,0.0848,0.3022,-7.1429,118.9306,51.41747658,21.14851224,0.66,-0.11,-1.31,19.5,0.2,-14.9,4
2.6,36.5476,0.1036,0.2946,-6.6346,100.2174,51.41748138,21.14851148,0.71,-0.07,-1.32,17.1,4.2,-11.7,4
2.65,37.3206,0.1146,0.2839,-6.4559,93.8622,51.41748639,21.14851078,0.31,-0.15,-1.48,16.6,5.6,-9.1,4
2.7,37.8396,0.116,0.2871,-6.0428,95.3316,51.41749129,21.14851,0.22,-0.18,-1.47,17.4,2.3,-6.3,4
2.75,38.0111,0.1218,0.2954,-5.8603,92.458,51.41749605,21.14850932,0.49,-0.09,-1.29,15.1,-1.2,-3.2,4
2.8,38.3699,0.1275,0.281,-5.6119,90.3644,51.41750093,21.14850852,0.74,0.06,-1.31,12,-1.3,-0.4,4
2.85,38.9013,0.1256,0.2535,-5.2696,94.1939,51.41750607,21.14850775,0.85,0.12,-1.31,14.8,-1.3,3.1,4
2.9,39.1703,0.1192,0.215,-4.6936,101.0662,51.41751109,21.14850727,0.83,0.13,-1.12,14.8,-2.3,8.8,4
2.95,39.7051,0.1175,0.1784,-4.6567,104.8989,51.41751623,21.14850667,0.91,0,-1.08,3,-3.3,12.4,4
3,40.165,0.1192,0.1558,-4.3802,105.4302,51.41752141,21.14850602,0.98,-0.15,-1.21,-1.8,-0.2,13,4
3.05,40.6048,0.1252,0.1467,-3.8696,102.2132,51.41752677,21.1485054,0.56,-0.11,-1.45,1.8,5,13.4,4
3.1,40.8046,0.1265,0.1395,-3.611,102.3304,51.41753186,21.14850508,0.3,-0.11,-1.6,-1.9,4.7,13.5,4
3.15,40.5806,0.1218,0.1445,-3.2083,106.2912,51.41753678,21.14850482,0.39,-0.06,-1.54,-5,2.5,10.3,4
3.2,40.7388,0.133,0.1444,-3.1099,98.3979,51.41754197,21.14850427,0.35,-0.01,-1.54,-2.1,0.3,5.9,4
3.25,40.9811,0.1364,0.1257,-2.6567,97.0723,51.41754713,21.1485038,0.3,-0.03,-1.57,1.7,1.1,2.7,4
3.3,41.3934,0.1405,0.1529,-2.288,95.6712,51.41755248,21.14850332,0.29,-0.05,-1.47,5.4,1.1,0,4
3.35,41.8494,0.1427,0.1846,-2.0787,95.9033,51.41755791,21.14850297,0.14,-0.04,-1.55,7.6,0.6,-1,4
3.4,42.3611,0.1541,0.1927,-1.7199,90.5879,51.41756351,21.14850267,0.2,-0.04,-1.67,8.2,1.2,0.2,4
3.45,42.642,0.1416,0.2168,-1.3441,100.0437,51.41756896,21.14850243,0.34,-0.14,-1.62,7.2,2.7,3.8,4
3.5,43.0452,0.1256,0.2246,-0.9162,114.9269,51.4175745,21.14850233,0.4,-0.19,-1.46,3.8,3.2,8.7,4
3.55,43.3382,0.1053,0.2205,-0.5507,139.1734,51.41758006,21.14850213,0.34,-0.17,-1.36,-1,0.6,12.1,4
3.6,43.6169,0.0727,0.1998,-0.435,204.6979,51.41758571,21.14850203,0.15,-0.14,-1.32,-5.1,0,12.1,4
3.65,44.0195,0.046,0.1666,-0.5663,329.1562,51.4175913,21.14850161,0.2,-0.1,-1.42,-3.8,-0.1,9.9,4
3.7,44.3053,0.0057,0.165,-0.2423,2679.0247,51.41759702,21.14850137,0.26,-0.09,-1.51,0.4,-2,9.8,4
3.75,44.3911,-0.0106,0.1828,-0.2399,1463.311,51.41760255,21.14850138,0.23,-0.1,-1.61,1.2,-2.4,13.7,4
3.8,44.9895,-0.0036,0.1977,-0.4646,4411.8901,51.41760846,21.14850124,0.29,-0.05,-1.67,-4.1,-2.2,15,4
3.85,45.2649,0.0027,0.2128,-0.747,5989.5884,51.41761418,21.1485009,0.36,0.08,-1.64,-10.7,-4,9.7,4
3.9,45.7411,0.0259,0.2241,-0.6453,631.1826,51.4176201,21.14850048,0.5,0.12,-1.54,-7,-4.4,-0.7,4
3.95,46.1429,0.0532,0.2229,-0.3442,312.5916,51.41762605,21.14850037,0.62,0.06,-1.52,5.4,-3.8,-7.8,4
4,46.5894,0.0671,0.2422,-0.1466,252.2419,51.41763199,21.14850033,0.61,-0.03,-1.6,13.7,-2.4,-6.8,4
4.05,46.9344,0.0712,0.2509,0.0649,241.6181,51.41763801,21.14850035,0.55,-0.08,-1.61,13.2,0.4,-0.8,4
4.1,47.4056,0.0476,0.2305,0.3685,368.3434,51.41764413,21.14850043,0.6,-0.09,-1.49,7.9,3.2,5.1,4
4.15,47.7804,0.0429,0.2273,0.6369,416.1782,51.41765022,21.14850054,0.65,-0.11,-1.45,-0.1,4.8,8.1,4
4.2,48.1151,0.0735,0.2294,0.5969,246.8017,51.41765644,21.14850067,0.69,-0.07,-1.4,-8.5,6.3,6.3,4
4.25,48.5634,0.0949,0.2261,0.3517,194.3747,51.41766266,21.1485005,0.85,-0.06,-1.32,-8.9,3.7,-0.3,4
4.3,49.0809,0.0864,0.253,0.4766,217.4328,51.41766902,21.14850065,0.89,-0.07,-1.29,-2.5,0.9,-5.9,4
4.35,49.562,0.0802,0.2639,0.5166,238.9049,51.41767543,21.1485007,0.97,-0.09,-1.25,5.4,0.3,-8,4
4.4,49.7893,0.0987,0.2594,0.9153,196.7617,51.41768177,21.148501,1.01,-0.12,-1.31,9.1,0.1,-7.3,4
4.45,50.1112,0.1243,0.2507,1.2836,158.7204,51.41768809,21.14850138,0.97,-0.18,-1.35,8.1,-2.2,-4.3,4
4.5,50.8483,0.1281,0.2284,1.9984,157.629,51.41769481,21.14850206,0.82,-0.15,-1.3,7,-2.1,-0.9,4
4.55,51.5079,0.1266,0.2079,2.4038,162.8681,51.41770143,21.14850271,0.8,-0.11,-1.31,8.8,1.8,1.3,4
4.6,51.6767,0.1143,0.1915,2.1947,182.2539,51.41770795,21.14850296,0.79,-0.11,-1.31,7.8,4.6,4.1,4
4.65,51.812,0.094,0.1721,2.0036,223.7755,51.41771449,21.14850323,0.68,-0.14,-1.3,4.9,4.5,6.6,4
4.7,52.0588,0.0788,0.1555,2.1366,269.6309,51.41772099,21.14850368,0.68,-0.16,-1.26,2.5,3.7,8.4,4
4.75,52.1984,0.0469,0.1483,2.5713,456.4547,51.41772762,21.14850431,0.73,-0.15,-1.29,1.9,2.9,9.4,4
4.8,52.4461,0.0403,0.1454,2.6523,537.3882,51.41773424,21.14850491,0.76,-0.07,-1.27,-0.7,0.3,10.3,4
4.85,52.845,0.0457,0.1647,2.617,479.4766,51.41774092,21.14850543,0.79,-0.07,-1.24,-3.8,-1,10.3,4
4.9,53.2456,0.071,0.186,2.7016,312.67,51.41774774,21.14850604,0.73,-0.1,-1.3,-4.6,-0.1,9.7,4
4.95,53.6643,0.0781,0.2056,2.9709,288.0707,51.41775457,21.14850661,0.77,-0.05,-1.27,-5.1,-0.8,8.8,4
5,53.9544,0.0809,0.2198,3.2579,281.6368,51.41776133,21.14850734,0.66,-0.09,-1.26,-6.5,0.2,6.4,4
5.05,54.2874,0.07,0.2137,3.4816,329.6055,51.41776822,21.14850814,0.9,-0.07,-1.24,-3,0.6,4,4
5.1,54.6914,0.0331,0.1687,3.3696,707.9146,51.41777525,21.14850889,1.04,-0.08,-1.24,-5,-3.8,3.4,4
5.15,55.0719,0.0199,0.1577,3.3152,1189.9741,51.41778223,21.14850947,0.68,-0.09,-1.3,-5.5,-7,0.5,4
5.2,55.4182,0.0299,0.1338,3.5355,800.8436,51.41778921,21.14851028,0.22,-0.07,-1.37,3.3,-3.8,-2.5,4
5.25,55.4978,0.0399,0.1017,3.3278,604.5343,51.41779613,21.14851081,0.14,-0.08,-1.55,8.6,-0.3,-0.6,4
5.3,55.17,0.0332,0.0851,3.3048,724.82,51.41780283,21.14851144,0.09,-0.06,-1.58,1.5,2.4,3.2,4
5.35,55.3219,0.0265,0.0727,3.4956,912.0636,51.41780973,21.14851229,0.24,-0.08,-1.56,-0.2,5.2,4.7,4
5.4,55.7558,0.0258,0.0726,3.7852,947.3586,51.41781683,21.14851313,0.08,-0.01,-1.55,-1.5,2.4,5,4
5.45,56.1926,0.0267,0.0812,3.7975,925.4841,51.41782404,21.14851382,0.2,0,-1.56,-4.8,0.2,2.8,4
5.5,56.2283,0.0104,0.0862,3.7979,2381.6592,51.41783096,21.14851452,0.32,-0.06,-1.42,-6.7,-1.4,-0.2,4
5.55,56.2088,-0.0105,0.0968,3.7783,2372.0242,51.41783787,21.14851521,0.15,-0.12,-1.35,-7,-0.9,-2.5,4
5.6,56.2563,-0.0312,0.1097,3.7069,797.228,51.41784492,21.14851593,0.2,-0.05,-1.5,-5.8,-1,-4.8,4
5.65,56.6869,-0.0425,0.1277,3.6452,592.3174,51.41785203,21.14851657,0.29,0.01,-1.58,-5.2,-2.9,-10.5,4
5.7,56.875,-0.0248,0.1428,3.5127,1023.8541,51.41785911,21.14851716,0.4,-0.04,-1.48,-0.6,-2,-18.8,4
5.75,57.1799,-0.0176,0.1397,3.2975,1454.861,51.4178663,21.14851777,0.41,-0.01,-1.42,7.7,-2.6,-26.7,4
5.8,57.4238,0.0116,0.1254,3.3386,2225.458,51.41787352,21.14851845,0.31,0.04,-1.38,16,-2.7,-32.1,4
5.85,57.5485,0.0444,0.1436,3.4837,585.4775,51.41788069,21.14851917,0.26,0.01,-1.54,23.6,-3.6,-32.8,4
5.9,57.8025,0.0811,0.1672,3.7425,323.2946,51.41788798,21.14852009,0.34,-0.05,-1.69,26.7,-6.2,-29.5,4
5.95,58.1758,0.1007,0.1637,4.0583,263.5484,51.41789534,21.14852106,0.46,-0.03,-1.72,25.7,-4.6,-24.9,4
6,58.5554,0.1195,0.1271,4.2818,224.6248,51.41790275,21.1485221,0.68,0.02,-1.74,22.7,-3.1,-21,4
6.05,58.8268,0.1509,0.123,4.412,179.3503,51.41791002,21.14852304,0.49,0.12,-1.72,20.8,-1.9,-20.3,4
6.1,58.8172,0.1901,0.1054,4.8158,142.8606,51.41791727,21.14852415,0.49,0.07,-1.69,24.2,-1,-19.6,4
6.15,58.9268,0.2461,0.1106,4.9903,110.913,51.41792454,21.14852524,0.53,-0.06,-1.68,26.8,3.1,-14.3,4
6.2,59.1185,0.2946,0.0966,5.2168,93.269,51.41793193,21.14852648,0.48,-0.11,-1.71,23.4,7.7,-5.5,4
6.25,59.3152,0.3166,0.0766,5.9352,87.3189,51.41793929,21.14852815,0.44,-0.11,-1.71,13.8,10.8,1.3,4
6.3,59.399,0.3466,0.0676,6.6403,80.0434,51.4179467,21.14852992,0.39,-0.1,-1.71,5.8,8.3,3.2,4
6.35,59.5285,0.3645,0.0558,7.3412,76.4292,51.417954,21.14853176,0.47,-0.13,-1.75,2,2.8,1.1,4
6.4,59.89,0.3766,0.047,8.2177,74.5364,51.41796145,21.14853396,0.19,-0.1,-1.61,3.8,-1.9,-4.2,4
6.45,59.7699,0.3675,0.0426,8.9389,76.3383,51.41796871,21.14853619,0.33,-0.1,-1.56,9.3,-4.4,-9.4,4
6.5,59.5385,0.3399,0.0274,9.4403,82.2935,51.41797588,21.14853828,0.35,-0.06,-1.23,13.7,-7.2,-12.6,4
6.55,59.6911,0.3019,-0.0149,9.6602,92.9526,51.4179832,21.14854036,0.24,-0.05,-1,16.6,-2.5,-15.4,4
6.6,59.6131,0.2834,-0.0719,9.8854,98.8293,51.41799034,21.1485424,0.13,-0.03,-1.07,20.7,1,-15.7,4
6.65,59.4284,0.2818,-0.1112,10.3792,98.8825,51.41799754,21.14854483,0.24,-0.08,-1.25,22.4,3.5,-13.4,4
6.7,59.389,0.2951,-0.1432,11.1343,94.034,51.41800463,21.14854739,0.38,-0.05,-1.29,20.4,4.4,-10.2,4
6.75,58.8843,0.3343,-0.1546,11.6907,81.9328,51.41801158,21.14854985,0.39,-0.03,-1.27,19.5,4.8,-9.3,4
6.8,58.5575,0.3642,-0.1746,12.2515,74.4433,51.4180185,21.14855245,0.07,0,-1.15,19,5.1,-9.5,4
6.85,58.2401,0.3933,-0.1922,12.9194,68.1858,51.41802549,21.1485552,-0.04,-0.03,-1.1,19.4,3.7,-9.2,4
6.9,57.7323,0.4144,-0.1945,13.8497,63.7751,51.41803216,21.14855821,0.09,-0.06,-1.23,20.2,3.5,-8.3,4
6.95,57.4378,0.4365,-0.21,14.7314,59.8728,51.41803887,21.14856144,0.15,-0.08,-1.25,19.6,5.4,-7.2,4
7,57.2779,0.4446,-0.2195,15.5407,58.2383,51.4180456,21.1485647,0,-0.06,-1.17,18.6,6.5,-6.7,4
7.05,56.9117,0.4367,-0.2179,16.0481,58.5131,51.41805216,21.14856792,0.07,-0.03,-1.18,19.1,8.2,-7.1,4
7.1,56.3998,0.4412,-0.2373,16.5018,56.994,51.41805868,21.14857132,0.06,0.01,-1.16,22.5,9.7,-7.2,4
7.15,55.8885,0.4634,-0.2374,17.4238,53.374,51.41806509,21.14857479,0.04,0.02,-1.23,23.6,8.4,-6.3,4
7.2,55.3366,0.4894,-0.2267,18.3871,49.6621,51.41807134,21.14857857,0.01,-0.03,-1.24,22.6,7.8,-5.6,4
7.25,55.175,0.4934,-0.2362,19.5374,48.7592,51.41807759,21.14858256,0.08,-0.01,-1.37,22.4,9.1,-4.4,4
7.3,54.7323,0.5204,-0.2297,20.5054,45.5079,51.41808374,21.14858663,-0.03,-0.02,-1.24,22.2,7.4,-3.7,4
7.35,54.2682,0.5422,-0.2175,21.646,42.9889,51.41808969,21.14859101,0,-0.01,-1.24,22.8,9.5,-3.3,4
7.4,53.6953,0.5629,-0.2108,22.4578,40.6771,51.41809554,21.14859528,-0.06,-0.03,-1.3,24,11.2,-2.9,4
7.45,53.5067,0.5614,-0.184,23.4178,40.3656,51.41810144,21.14859975,-0.08,-0.03,-1.36,24,16.2,-1,4
7.5,53.4432,0.5672,-0.163,24.4969,39.6578,51.41810725,21.14860462,-0.16,-0.05,-1.38,25.1,18.5,1.3,4
7.55,53.0597,0.5657,-0.1736,25.5822,39.2647,51.41811293,21.14860954,-0.05,-0.03,-1.43,22.6,17.3,3.6,4
7.6,52.618,0.5662,-0.199,26.696,38.6653,51.41811845,21.1486145,-0.05,-0.06,-1.5,19.7,15.8,4.2,4
7.65,52.1349,0.5897,-0.1955,27.8585,36.5352,51.41812383,21.14861972,-0.1,-0.05,-1.43,21.1,13.8,4.2,4
7.7,51.9301,0.6087,-0.1917,29.0238,35.0158,51.41812918,21.14862513,-0.14,-0.05,-1.38,22.8,13.3,4.1,4
7.75,51.606,0.6179,-0.1715,30.0384,34.0563,51.41813455,21.14863055,-0.24,-0.06,-1.3,22.2,12.7,5.1,4
7.8,51.237,0.6246,-0.1781,31.5533,33.2486,51.41813954,21.14863633,-0.34,-0.07,-1.25,21.4,13.2,5.2,4
7.85,51.0117,0.6205,-0.1794,32.8478,33.1132,51.41814457,21.14864227,-0.19,-0.05,-1.36,21.7,13.8,5.3,4
7.9,50.5026,0.5946,-0.1572,34.1527,33.9966,51.41814936,21.14864829,-0.08,-0.07,-1.43,23.1,14.2,5.8,4
7.95,50.3521,0.5878,-0.1151,34.9786,34.0971,51.41815427,21.1486543,-0.04,-0.09,-1.46,23.3,16.3,8.3,4
8,50.3742,0.5928,-0.0816,36.0667,33.6879,51.41815911,21.14866061,-0.19,-0.06,-1.44,20.6,18.2,10.1,4
8.05,50.2762,0.6076,-0.0696,37.4675,32.7067,51.41816378,21.14866713,-0.15,-0.03,-1.52,16.8,18.3,10.8,4
8.1,49.8899,0.6227,-0.0397,38.6101,31.5902,51.4181684,21.14867367,-0.06,-0.02,-1.54,15.5,16.7,9.2,4
8.15,49.8849,0.6355,-0.0093,39.8655,30.9064,51.41817285,21.14868067,-0.04,-0.02,-1.53,17.1,16.3,7,4
8.2,50.0869,0.6333,0.0165,41.1415,31.1224,51.41817727,21.14868784,-0.12,-0.07,-1.5,21.5,15.9,5.9,4
8.25,50.1922,0.6299,0.0247,42.4449,31.3732,51.41818174,21.14869508,-0.18,-0.06,-1.52,19.9,17.3,6.8,4
8.3,50.2003,0.6521,0.029,44.1024,30.3303,51.41818578,21.14870243,-0.06,-0.09,-1.54,18.6,13.3,7,4
8.35,50.0927,0.6428,0.0407,45.4036,30.7294,51.41818986,21.14870996,-0.13,-0.12,-1.51,15.5,12.4,6.6,4
8.4,50.2723,0.631,0.0362,46.5915,31.4529,51.41819391,21.14871771,-0.08,-0.11,-1.46,18.6,12.5,4.5,4
8.45,50.4958,0.6071,0.0493,47.6243,32.8753,51.4181979,21.14872558,-0.19,-0.08,-1.53,20.3,15.6,3.8,4
8.5,50.3527,0.6339,0.0667,48.7892,31.4472,51.4182018,21.14873349,-0.14,-0.05,-1.6,21.4,18.9,3.5,4
8.55,50.2947,0.6583,0.0799,50.0319,30.3143,51.41820555,21.14874161,-0.19,-0.04,-1.61,20.2,18,3.6,4
8.6,50.5101,0.6767,0.0781,51.4498,29.6927,51.41820917,21.14874977,-0.12,0.01,-1.61,20,16.4,3.2,4
8.65,50.8383,0.6768,0.0899,52.8651,29.9517,51.41821268,21.1487583,0.03,-0.02,-1.56,22.4,12.8,2.9,4
8.7,51.0946,0.6868,0.12,54.2744,29.7574,51.41821601,21.14876709,-0.01,0.01,-1.54,23.2,12.5,3.3,4
8.75,51.3094,0.6955,0.1206,55.8334,29.6277,51.41821931,21.14877614,0.07,-0.03,-1.56,25,12.7,4.2,4
8.8,51.4772,0.7075,0.1186,57.3432,29.3318,51.41822249,21.14878511,-0.21,-0.05,-1.51,22.5,17.8,6.5,4
8.85,51.7737,0.6954,0.1164,58.6465,30.1293,51.41822568,21.14879425,-0.15,-0.03,-1.6,21.6,22.7,7.6,4
8.9,51.7716,0.6761,0.1288,59.8198,31.1074,51.41822869,21.14880331,-0.15,-0.02,-1.57,18.5,21.9,8.8,4
8.95,51.8551,0.6476,0.1132,60.8715,32.6609,51.41823159,21.14881269,-0.04,-0.01,-1.6,15.6,18.7,8,4
9,51.9658,0.6384,0.0896,62.1558,33.3276,51.41823429,21.1488222,0.08,-0.02,-1.54,18,15.5,5.9,4
9.05,52.2886,0.6444,0.0864,63.4077,33.3133,51.41823707,21.14883183,-0.08,-0.05,-1.54,20.6,13.5,5,4
9.1,52.5614,0.647,0.1021,64.8696,33.4436,51.41823961,21.14884173,0.08,-0.09,-1.55,21.8,14.2,5,4
9.15,52.6604,0.6387,0.1171,66.0233,34.0589,51.41824213,21.14885149,-0.07,-0.12,-1.51,21.7,17.2,6.4,4
9.2,53.0358,0.6406,0.121,67.3223,34.3259,51.4182445,21.14886161,-0.11,-0.06,-1.63,20.5,20.2,8.6,4
9.25,52.9854,0.6584,0.1211,68.539,33.4954,51.41824663,21.14887177,0.16,-0.07,-1.63,18,18.3,10.4,4
9.3,53.1595,0.6621,0.1015,69.7837,33.5432,51.41824862,21.14888197,0.21,-0.08,-1.53,16.2,12.9,10.7,4
9.35,53.4178,0.6518,0.0995,71.0242,34.3482,51.41825064,21.14889236,-0.1,-0.03,-1.53,16.4,12.9,9.2,4
9.4,53.6708,0.6387,0.0862,72.2739,35.3262,51.41825242,21.14890295,0.01,-0.02,-1.7,19.9,17.4,7.7,4
9.45,53.7541,0.6171,0.0919,73.257,36.7173,51.41825418,21.14891345,0.14,-0.08,-1.6,19.3,18.9,9,4
9.5,53.7727,0.612,0.1133,74.3859,37.1476,51.41825579,21.14892401,0.11,-0.09,-1.51,16.8,16,10.6,4
9.55,53.9917,0.6009,0.1216,75.7629,38.1223,51.41825717,21.14893471,-0.05,-0.03,-1.58,15.3,11.9,10.2,4
9.6,54.1741,0.6007,0.1217,77.0264,38.4103,51.41825844,21.14894555,0.13,0,-1.72,17.7,9.8,8.8,4
9.65,54.4234,0.5859,0.1038,77.9081,39.7174,51.41825964,21.14895652,0.26,-0.08,-1.63,19.9,9.6,9.3,4
9.7,54.7964,0.5867,0.1136,78.9333,40.0671,51.41826067,21.14896763,0.29,-0.13,-1.45,20.1,12.4,11.7,4
9.75,55.0876,0.6028,0.096,80.0003,39.3388,51.41826168,21.14897873,0.22,-0.14,-1.38,15.5,17,15.4,4
9.8,55.185,0.6213,0.107,81.1207,38.3421,51.41826244,21.14898991,0.09,-0.14,-1.43,11,17.6,17.6,4
9.85,55.2033,0.6377,0.1292,82.2939,37.4941,51.41826312,21.14900088,0,-0.1,-1.54,7.5,14.7,17.3,4
9.9,55.2001,0.6478,0.1404,83.6258,37.0534,51.41826354,21.14901189,0.03,0.01,-1.64,9,10.9,14.3,4
9.95,55.4267,0.6402,0.1325,84.8037,37.8141,51.4182639,21.14902315,0.03,-0.09,-1.69,12.6,13.3,11.9,4
10,55.86,0.6461,0.1289,85.9115,37.9088,51.41826411,21.1490348,0.29,-0.18,-1.77,16.4,15,12.1,4
10.05,56.2221,0.6481,0.1431,87.1732,38.189,51.41826406,21.14904631,0.38,-0.09,-1.72,12.1,12.1,14.4,4
10.1,56.6182,0.6205,0.1657,88.3393,40.3467,51.41826407,21.14905787,0.43,-0.06,-1.65,9.8,10.5,14.4,4
10.15,56.8776,0.5671,0.1491,89.2835,44.5627,51.41826385,21.14906955,0.41,-0.09,-1.62,12.2,9,14.3,4
10.2,57.0161,0.5281,0.144,90.2011,48.1957,51.4182636,21.1490811,0.48,-0.1,-1.51,11.4,9.4,14.2,4
10.25,57.016,0.4998,0.1364,90.9386,51.1476,51.41826332,21.14909259,0.46,-0.1,-1.45,10.2,9.4,13.8,4
10.3,57.2058,0.4805,0.1076,91.9572,53.5912,51.41826281,21.14910407,0.42,-0.09,-1.42,8.6,9.5,13,4
10.35,57.4704,0.4769,0.0869,92.83,54.4163,51.41826223,21.14911567,0.42,-0.05,-1.34,8.9,8.3,11.2,4
10.4,57.667,0.471,0.0623,93.5316,55.421,51.41826164,21.14912722,0.41,-0.06,-1.32,10.4,8.3,9.4,4
10.45,57.8464,0.4658,0.0594,94.3423,56.3198,51.41826079,21.14913886,0.32,-0.08,-1.36,13,7.8,9.1,4
10.5,57.748,0.4658,0.0836,95.1928,56.3249,51.41826001,21.14915028,0.33,-0.1,-1.41,12,8.8,10.1,4
10.55,57.9771,0.468,0.1025,96.1176,56.4307,51.41825902,21.14916186,0.36,-0.09,-1.39,9.3,8.7,10.5,4
10.6,58.4438,0.473,0.1115,96.9276,56.4505,51.41825792,21.14917362,0.34,-0.04,-1.37,6.6,7,8.8,4
10.65,58.3049,0.4621,0.1111,97.7337,57.8397,51.41825677,21.14918524,0.3,-0.01,-1.41,7.7,4.3,4.2,4
10.7,58.4529,0.4548,0.1056,98.5221,59.1057,51.41825548,21.14919693,0.35,0,-1.39,10.9,2.5,-0.6,4
10.75,58.6307,0.4525,0.088,99.266,59.7779,51.41825407,21.14920851,0.34,0,-1.3,14.3,2.8,-4.9,4
10.8,59.0118,0.4666,0.0789,100.0041,58.4938,51.41825257,21.14922018,0.45,-0.02,-1.32,20,3.6,-7.3,4
10.85,59.1176,0.4681,0.0567,100.9115,58.5408,51.41825094,21.14923183,0.4,-0.04,-1.33,20.6,5.4,-6.8,4
10.9,59.1768,0.4768,0.0192,101.5481,57.6202,51.4182493,21.14924347,0.49,-0.09,-1.45,21.4,7.6,-5.8,4
10.95,59.0036,0.4841,-0.0031,102.4986,56.5996,51.41824747,21.14925482,0.48,-0.09,-1.45,20.8,7.4,-3.3,4
11,59.0142,0.5093,-0.0107,103.3509,53.8006,51.41824555,21.14926625,0.47,-0.07,-1.46,20,8.8,-2.1,4
11.05,58.9451,0.5174,-0.0145,104.183,52.8761,51.4182436,21.1492776,0.48,-0.05,-1.48,18.4,8.9,-1.9,4
11.1,58.8199,0.5139,-0.0078,105.2373,53.0906,51.41824133,21.1492888,0.47,-0.06,-1.51,17.8,7.2,-3.7,4
11.15,58.7707,0.5082,-0.0294,106.1365,53.6194,51.41823905,21.14929996,0.4,-0.03,-1.49,20.6,5.4,-5.9,4
11.2,58.7303,0.4868,0.0004,106.8486,55.8891,51.41823666,21.14931103,0.36,-0.03,-1.47,25.1,6.7,-6.5,4
11.25,58.936,0.4656,0.0235,107.7081,58.64,51.41823421,21.14932227,0.37,-0.07,-1.46,27.4,8.6,-4.1,4
11.3,59.0998,0.4556,0.027,108.4729,60.1338,51.41823157,21.14933337,0.45,-0.08,-1.47,25.5,11.5,0.1,4
11.35,59.0878,0.4532,-0.0013,109.2202,60.4737,51.41822891,21.14934426,0.44,-0.09,-1.51,22,12.7,3.6,4
11.4,58.7571,0.4515,-0.0321,109.9989,60.3497,51.41822614,21.14935491,0.35,-0.07,-1.39,19.5,10.8,6.2,4
11.45,58.7092,0.4796,-0.0616,110.6824,56.7063,51.4182233,21.14936566,0.17,-0.02,-1.09,19.6,7.3,7.5,4
11.5,58.8562,0.5148,-0.0903,111.6176,52.8534,51.41822035,21.1493764,0.08,0.02,-1.08,20.9,7.2,9.1,4
11.55,58.6308,0.5442,-0.1276,112.4781,49.6575,51.4182172,21.1493869,0.08,-0.04,-1.24,16.2,10.2,10.8,4
11.6,57.9483,0.5922,-0.1459,113.7153,44.9209,51.41821389,21.14939687,0.24,-0.1,-1.38,11.4,12.2,11.1,4
11.65,57.4581,0.6081,-0.165,114.7573,43.1785,51.41821057,21.14940691,0.24,-0.08,-1.27,11.7,11.6,8.8,4
11.7,57.2951,0.6011,-0.2066,115.8033,43.3219,51.4182071,21.14941672,0.03,-0.01,-1.17,14.3,10,5.3,4
11.75,57.1603,0.5992,-0.2573,116.8233,43.0698,51.41820342,21.14942659,-0.01,0.01,-1.24,19.7,7.9,2.2,4
11.8,56.8042,0.5996,-0.2877,117.9921,42.4235,51.41819966,21.149436,0.06,0,-1.2,28.4,6.9,2.2,4
11.85,56.0516,0.5812,-0.3154,119.0349,42.7956,51.41819596,21.14944521,-0.04,0,-1.08,29,9.5,7.5,4
11.9,55.505,0.5574,-0.3392,119.8734,43.7405,51.41819222,21.14945439,-0.08,-0.05,-1.19,21.1,14.6,12.6,4
11.95,54.9109,0.5193,-0.3219,120.7796,45.9452,51.41818844,21.14946321,-0.17,-0.06,-1.24,13,19.1,14.2,4
12,53.9284,0.4898,-0.2926,121.7066,47.3497,51.41818471,21.14947171,-0.11,-0.04,-1.33,10.3,17.4,11.4,4
12.05,53.1249,0.4761,-0.3002,122.7433,47.5287,51.41818077,21.14948,-0.06,-0.01,-1.23,12.4,9.4,6,4
12.1,52.8541,0.5081,-0.2894,123.8911,43.867,51.41817667,21.14948827,-0.13,-0.01,-1.12,19,5,0.1,4
12.15,52.9063,0.5338,-0.2781,124.8085,41.3965,51.41817249,21.14949644,-0.21,-0.03,-1.09,26.4,7.2,-1.7,4
12.2,52.6147,0.5703,-0.24,125.5699,38.1741,51.41816832,21.14950452,-0.23,-0.05,-1.11,29.5,10.5,0.8,4
12.25,51.9957,0.6229,-0.2181,126.601,34.2619,51.41816409,21.14951234,-0.3,-0.05,-1.12,26.4,15.4,5.7,4
12.3,51.5781,0.6734,-0.2213,127.9876,31.1986,51.41815973,21.14951966,-0.3,-0.05,-1.2,20.9,23.2,8.5,4
12.35,51.0481,0.7182,-0.2372,129.5049,28.7236,51.41815508,21.14952669,-0.18,-0.08,-1.3,16.6,21.7,9.4,4
12.4,50.4247,0.7317,-0.246,131.2148,27.6159,51.41815036,21.14953354,-0.24,-0.03,-1.18,16.9,13.7,8,4
12.45,50.0642,0.759,-0.2537,133.0259,26.1979,51.41814546,21.14953997,-0.39,-0.04,-1.14,20.5,13.9,6.4,4
12.5,49.567,0.7892,-0.288,134.4536,24.7129,51.41814069,21.14954635,-0.2,-0.04,-1.29,24.8,16.7,5.9,4
12.55,48.9972,0.8002,-0.2935,135.969,23.8396,51.41813576,21.14955242,-0.2,-0.04,-1.24,21.8,15.1,6.6,4
12.6,48.6685,0.7689,-0.2527,137.3584,24.3812,51.41813094,21.14955833,-0.23,-0.01,-1.22,21,16.2,6.4,4
12.65,48.1563,0.7033,-0.2123,138.6685,26.1301,51.41812603,21.14956409,-0.21,-0.03,-1.29,21.5,16.3,5.5,4
12.7,47.8084,0.6687,-0.2229,140.2062,27.0634,51.41812108,21.14956957,-0.22,-0.05,-1.33,20.7,17.4,4,4
12.75,47.3877,0.6801,-0.2405,141.7667,26.1465,51.41811601,21.14957477,-0.16,-0.01,-1.29,21.3,18.1,2.4,4
12.8,46.8637,0.7064,-0.2315,143.4485,24.6694,51.41811096,21.14957971,-0.19,-0.01,-1.24,22,16.1,1.4,4
12.85,46.5314,0.7255,-0.2232,145.0044,23.6384,51.41810584,21.14958443,-0.17,-0.05,-1.28,24.9,15.2,-0.7,4
12.9,46.021,0.7468,-0.2272,146.2,22.5114,51.41810082,21.14958916,-0.28,-0.04,-1.17,27.7,14.2,-0.8,4
12.95,45.8344,0.7426,-0.2134,147.5977,22.3491,51.41809572,21.1495935,-0.3,-0.02,-1.17,29.9,18,0.6,4
13,45.3502,0.7239,-0.2048,149.5719,22.4928,51.41809051,21.14959733,-0.24,-0.03,-1.21,29.6,20.9,3.4,4
13.05,44.9109,0.709,-0.2095,151.7864,22.5534,51.41808514,21.14960089,-0.23,-0.06,-1.2,25.5,19.8,5.3,4
13.1,44.5329,0.6795,-0.197,153.4827,23.1398,51.41807992,21.14960412,-0.14,-0.04,-1.28,22.6,20.2,5.1,4
13.15,44.2883,0.6565,-0.207,154.4333,23.6276,51.41807486,21.14960769,-0.18,-0.06,-1.31,23,18.5,2.9,4
13.2,43.8276,0.6471,-0.2028,155.5644,23.5193,51.41806975,21.14961095,-0.27,-0.05,-1.23,24,18.4,0.5,4
13.25,43.3482,0.6473,-0.2021,157.0384,23.058,51.41806471,21.14961377,-0.31,-0.04,-1.2,28.3,18.8,-0.2,4
13.3,43.0297,0.6671,-0.2235,158.6336,22.0186,51.41805955,21.14961637,-0.23,-0.04,-1.23,30,20.5,-0.3,4
13.35,42.7353,0.6929,-0.2359,160.2929,20.8581,51.41805424,21.14961867,-0.11,-0.01,-1.26,30.5,19.8,0,4
13.4,42.2296,0.7001,-0.2468,162.0941,20.1911,51.41804913,21.14962059,-0.14,-0.03,-1.29,34.2,18.1,0.4,4
13.45,41.7365,0.7371,-0.2162,163.9647,18.7531,51.41804402,21.14962229,-0.31,-0.04,-1.27,35.5,19.4,2.1,4
13.5,41.4948,0.8052,-0.1992,165.7963,16.9065,51.41803883,21.14962372,-0.32,-0.08,-1.31,35.8,24.2,5.5,4
13.55,41.1037,0.8409,-0.1823,167.927,15.8963,51.4180336,21.14962474,-0.31,-0.07,-1.29,33.2,26.7,9,4
13.6,40.7052,0.8224,-0.1503,170.0927,15.9635,51.41802848,21.14962549,-0.31,-0.04,-1.32,28.1,28.1,11.8,4
13.65,40.3733,0.7846,-0.1237,172.1506,16.482,51.41802341,21.14962599,-0.24,-0.07,-1.28,26.3,23.7,12.1,4
13.7,40.1638,0.7859,-0.1172,173.9706,16.2754,51.41801832,21.14962638,-0.36,-0.06,-1.24,23.8,21.6,12,4
13.75,40.1715,0.7769,-0.1048,175.5373,16.3754,51.41801311,21.14962665,-0.15,-0.01,-1.25,26.7,22.8,9.9,4
13.8,40.188,0.7456,-0.0832,177.5193,16.9855,51.41800802,21.14962647,-0.16,-0.05,-1.24,27.9,21.3,8.7,4
13.85,39.779,0.7357,-0.0539,179.6536,16.9697,51.41800309,21.14962596,-0.36,-0.02,-1.23,26,24.9,9,4
13.9,39.5395,0.7493,-0.0464,-178.6577,16.5148,51.41799808,21.14962531,-0.31,-0.02,-1.21,27.9,29.3,7.9,4
13.95,39.6262,0.766,-0.0419,-176.7206,16.1514,51.41799305,21.14962433,-0.34,-0.04,-1.35,26.6,30.2,7.9,4
14,39.6407,0.7758,-0.0326,-174.4032,15.9155,51.41798806,21.14962298,-0.05,-0.04,-1.54,26.7,29.1,6.7,4
14.05,39.2671,0.8012,-0.0235,-172.4011,15.2374,51.41798326,21.14962161,-0.06,-0.06,-1.59,27,23.8,5.6,4
14.1,39.4111,0.8169,-0.0011,-170.7329,14.9773,51.41797825,21.14961987,-0.3,0.02,-1.54,28.6,24.4,4.4,4
14.15,39.552,0.8053,0.031,-168.8445,15.2401,51.4179734,21.14961792,-0.07,-0.03,-1.56,34.3,31.7,2.5,4
14.2,39.79,0.7594,0.0724,-166.2558,16.2758,51.41796845,21.14961556,0.02,-0.14,-1.66,33.2,30.4,4.2,4
14.25,39.6969,0.7213,0.1178,-164.0552,17.1446,51.41796363,21.14961314,-0.04,-0.11,-1.55,29,25.2,6.2,4
14.3,39.6553,0.7312,0.1304,-162.4836,16.978,51.41795886,21.14961051,-0.12,-0.11,-1.54,30.1,21.9,6.1,4
14.35,40.0002,0.7503,0.1241,-160.8799,16.7794,51.41795406,21.14960755,-0.23,-0.07,-1.55,30,20.4,7,4
14.4,40.4565,0.7392,0.115,-159.2181,17.3112,51.41794916,21.14960434,-0.21,-0.08,-1.42,30.9,21.6,8.1,4
14.45,40.756,0.7334,0.1318,-157.4182,17.6595,51.41794437,21.14960083,-0.39,-0.07,-1.42,29.7,25.5,10,4
14.5,40.9055,0.7275,0.1261,-155.8229,17.9638,51.41793963,21.14959711,-0.36,-0.03,-1.45,28.9,32.3,11.7,4
14.55,40.9949,0.7146,0.0926,-153.8283,18.4173,51.41793516,21.14959313,-0.18,-0.1,-1.53,28.2,34.8,13.2,4
14.6,41.0839,0.6942,0.086,-151.373,19.0663,51.41793068,21.14958877,-0.04,-0.09,-1.7,24.5,30.8,14.4,4
14.65,41.1215,0.6998,0.0766,-149.2977,18.994,51.4179263,21.1495842,-0.06,-0.09,-1.58,23.8,22.1,14.3,4
14.7,41.157,0.7232,0.0908,-147.977,18.4512,51.41792204,21.14957959,-0.23,-0.1,-1.54,22.9,17.1,13.2,4
14.75,41.3997,0.7101,0.0778,-146.9131,18.9667,51.41791771,21.14957478,-0.23,-0.05,-1.41,25.2,18.9,11.1,4
14.8,41.6023,0.6803,0.0654,-145.3237,19.9524,51.41791349,21.1495697,-0.23,-0.06,-1.34,27.6,23,10.3,4
14.85,41.6144,0.6706,0.0833,-143.549,20.2975,51.41790941,21.14956444,-0.18,-0.03,-1.5,25.6,27.7,11.6,4
14.9,41.7563,0.6683,0.0909,-141.7477,20.5015,51.4179055,21.1495589,-0.03,-0.09,-1.6,24.7,28.9,12.1,4
14.95,42.0865,0.6817,0.1018,-139.8882,20.3326,51.41790153,21.14955299,-0.05,-0.07,-1.68,22.8,24.5,12.3,4
15,42.2976,0.7009,0.1133,-138.3027,19.9527,51.41789772,21.14954703,-0.06,-0.07,-1.51,23.7,19.3,11.8,4
15.05,42.4069,0.7252,0.1324,-136.6588,19.4195,51.41789409,21.14954085,-0.06,-0.07,-1.47,25.3,16.7,11.5,4
15.1,42.6055,0.7361,0.1413,-135.0313,19.3224,51.41789043,21.14953443,-0.06,-0.07,-1.56,25.3,17.7,11.7,4
15.15,42.6548,0.7167,0.1285,-133.0601,19.9767,51.41788707,21.14952781,-0.09,-0.15,-1.62,25.1,21.3,12.4,4
15.2,43.0277,0.6715,0.1174,-131.2837,21.6112,51.41788372,21.14952093,-0.1,-0.12,-1.58,24.2,22,13.7,4
15.25,43.2194,0.6376,0.1178,-129.9089,22.9667,51.41788037,21.14951394,-0.06,-0.1,-1.51,21.8,20.4,14.9,4
15.3,43.5193,0.6412,0.0992,-128.6249,23.1001,51.41787719,21.14950686,-0.12,-0.05,-1.58,20.4,20.6,15.3,4
15.35,43.7079,0.6343,0.0952,-127.1972,23.5407,51.41787412,21.14949967,-0.18,-0.06,-1.65,21,23,14.8,4
15.4,43.6592,0.6152,0.0822,-125.9315,24.3309,51.41787108,21.14949248,-0.23,-0.09,-1.58,20.1,25.6,14.7,4
15.45,43.5735,0.6046,0.088,-124.3714,24.7841,51.41786832,21.14948498,-0.09,-0.12,-1.6,20.1,25,15.3,4
15.5,43.8403,0.5985,0.0773,-122.7808,25.2704,51.41786561,21.14947722,-0.11,-0.07,-1.54,19.3,19.9,15.7,4
15.55,44.1458,0.5915,0.056,-121.2245,25.8227,51.41786304,21.14946936,-0.12,-0.05,-1.55,20.9,17.7,15.2,4
15.6,44.2127,0.6175,0.0354,-119.8608,24.8177,51.41786055,21.1494614,-0.11,-0.05,-1.52,26.2,18,15.1,4
15.65,44.2352,0.6602,0.0646,-118.5553,23.2519,51.41785809,21.14945345,-0.1,-0.01,-1.51,27.1,19.1,18.2,4
15.7,44.3324,0.6793,0.1058,-117.356,22.7052,51.41785585,21.14944543,-0.15,0.01,-1.56,24.7,20.3,22.7,4
15.75,44.5317,0.6747,0.1222,-115.8323,23.0543,51.41785369,21.14943714,-0.17,-0.02,-1.63,20.9,23.2,26.9,4
15.8,44.7726,0.6658,0.1403,-114.0901,23.5997,51.41785173,21.14942862,-0.07,-0.06,-1.61,15.9,24.2,30.9,4
15.85,44.9377,0.6537,0.1593,-112.4602,24.2526,51.41784995,21.14942004,-0.04,-0.07,-1.64,10.4,21.4,32.9,4
15.9,45.1641,0.6115,0.171,-111.0625,26.2117,51.41784811,21.14941137,-0.03,-0.09,-1.58,7.1,18.8,33.9,4
15.95,45.6756,0.564,0.1755,-109.5223,28.929,51.41784651,21.14940238,-0.07,-0.12,-1.51,7.3,16.5,34.9,4
16,46.4415,0.5139,0.1983,-108.4711,32.4982,51.41784483,21.14939315,0.04,-0.23,-1.56,6.7,13.9,39,4
16.05,46.4623,0.4431,0.2038,-107.7201,37.9897,51.41784315,21.1493842,0.12,-0.12,-1.58,4.4,9.8,44.7,4
16.1,46.2818,0.3661,0.1779,-106.9014,46.1548,51.41784171,21.1493755,-0.01,0.02,-1.5,-0.6,7.4,47.2,4
16.15,46.7837,0.3236,0.1249,-106.3403,53.1153,51.41784014,21.14936636,-0.02,-0.06,-1.57,-4.5,9.6,48.1,4
16.2,47.072,0.286,0.0776,-105.7029,60.7494,51.41783865,21.14935714,0.1,-0.25,-1.64,-6.2,11.2,50.2,4
16.25,47.2765,0.2581,0.0614,-105.3688,67.7869,51.41783717,21.14934788,0.28,-0.38,-1.54,-8.7,5.9,58.5,4
16.3,47.2577,0.2473,0.0536,-104.5871,70.8944,51.41783599,21.14933882,0.16,-0.38,-1.46,-16.1,1.6,69.4,4
16.35,47.3855,0.226,0.0578,-103.9077,77.9303,51.41783471,21.14932955,0.23,-0.32,-1.35,-26.5,7.5,76.7,4
16.4,47.4545,0.2084,0.0652,-103.4153,84.8074,51.41783352,21.14932033,0.36,-0.29,-1.46,-33.8,8.7,81.3,4
16.45,47.349,0.1786,0.0893,-103.1472,98.9712,51.41783233,21.14931122,0.32,-0.16,-1.37,-45.4,6.3,82.6,4
16.5,47.5131,0.1294,0.1239,-102.5223,137.5327,51.4178312,21.14930188,0.31,-0.03,-1.34,-57.2,5.6,76.7,4
16.55,47.9004,0.0487,0.1205,-102.6946,369.847,51.41782977,21.14929225,0.11,-0.04,-1.32,-61.2,5.8,64.4,4
16.6,48.4913,-0.0166,0.1047,-103.1109,1110.054,51.41782819,21.14928249,0.1,-0.01,-1.43,-54.2,8.2,50.2,4
16.65,48.6617,-0.1017,0.1235,-102.9996,181.5752,51.41782679,21.14927291,0.12,-0.03,-1.48,-44.3,9.7,38.7,4
16.7,48.5901,-0.175,0.1112,-103.1979,105.871,51.41782534,21.14926364,0.11,-0.07,-1.45,-36.4,9.4,31.7,4
16.75,48.7434,-0.2451,0.0963,-103.6585,76.1177,51.41782378,21.14925411,0.13,-0.07,-1.53,-31.9,7.4,29.1,4
16.8,48.8676,-0.2784,0.0679,-104.4032,67.4007,51.41782201,21.14924466,0.06,-0.07,-1.54,-33.3,5.5,28.6,4
16.85,49.1243,-0.3096,0.0363,-105.0774,61.0716,51.41782018,21.149235,0.06,-0.04,-1.45,-36.5,7.2,27,4
16.9,49.0301,-0.3624,0.0235,-105.846,52.1334,51.41781831,21.14922575,-0.03,-0.04,-1.36,-38.4,7.6,23.8,4
16.95,48.8168,-0.403,0.0033,-106.6949,46.7168,51.41781628,21.14921669,-0.12,-0.04,-1.26,-36.8,8.3,19.2,4
17,48.8802,-0.4174,0.0076,-107.4813,45.1608,51.41781432,21.14920744,-0.2,0.02,-1.23,-38.1,10.3,14.5,4
17.05,49.1534,-0.4578,0.0175,-108.363,41.4161,51.4178121,21.14919801,-0.28,0.05,-1.3,-36.8,14.8,7,4
17.1,49.128,-0.4954,0.0277,-109.2463,38.2761,51.41780987,21.14918882,-0.23,0.05,-1.4,-30.7,15.2,0.4,4
17.15,49.0375,-0.5037,-0.0035,-110.2608,37.598,51.4178075,21.14917991,-0.05,0.02,-1.39,-23.8,11.5,-2,4
17.2,48.9441,-0.5161,-0.042,-111.5138,36.6139,51.41780486,21.14917115,-0.11,-0.03,-1.31,-22.7,6.2,-0.8,4
17.25,49.156,-0.5335,-0.0687,-112.8448,35.5129,51.41780212,21.14916213,-0.14,-0.08,-1.26,-23.9,7.2,1.1,4
17.3,48.8612,-0.5658,-0.1082,-113.8035,33.1885,51.41779934,21.14915372,0.02,-0.04,-1.32,-27.8,8.2,1.8,4
17.35,48.4029,-0.6017,-0.1343,-114.8485,30.7865,51.41779658,21.14914552,-0.09,-0.01,-1.26,-30.5,10,-0.6,4
17.4,48.1686,-0.6248,-0.1617,-116.2686,29.3493,51.41779357,21.14913747,-0.15,0.01,-1.29,-28.2,14.1,-3.9,4
17.45,47.7966,-0.6392,-0.1581,-117.8095,28.2942,51.41779042,21.14912964,-0.16,0,-1.38,-25.3,17.8,-5.8,4
17.5,47.4995,-0.6288,-0.1476,-118.9011,28.41,51.41778731,21.14912175,-0.22,0,-1.37,-23.1,20.5,-6.5,4
17.55,47.0906,-0.636,-0.1503,-120.2204,27.6868,51.41778415,21.14911426,-0.16,-0.02,-1.39,-22.9,20.2,-5.8,4
17.6,46.9217,-0.6404,-0.1531,-121.6709,27.2413,51.41778078,21.14910676,-0.17,-0.03,-1.36,-23.3,16.6,-4.2,4
17.65,46.786,-0.6621,-0.148,-123.4609,26.1123,51.41777718,21.14909943,-0.24,-0.03,-1.34,-24.4,14.9,-2,4
17.7,46.8483,-0.6758,-0.1261,-124.7061,25.4712,51.41777357,21.14909213,-0.28,-0.05,-1.38,-26.8,17.7,-0.4,4
17.75,46.6007,-0.6952,-0.0942,-125.8674,24.509,51.41776993,21.14908513,-0.23,0.01,-1.38,-28.8,20.9,0.2,4
17.8,46.2332,-0.7094,-0.0895,-127.3233,23.7401,51.41776616,21.1490783,-0.34,0.01,-1.44,-29.2,25.7,-0.4,4
17.85,45.7732,-0.7362,-0.0984,-129.1704,22.5644,51.41776232,21.14907192,-0.29,0.02,-1.53,-30.7,30.1,-2,4
17.9,45.4206,-0.7818,-0.0674,-131.1019,21,51.41775816,21.14906595,-0.35,0,-1.54,-32.8,30.4,-5.2,4
17.95,45.7917,-0.8087,-0.0283,-132.6971,20.412,51.41775393,21.14905946,-0.23,-0.03,-1.64,-29,28.4,-9,4
18,45.8215,-0.7837,0.0008,-134.4275,21.0469,51.41774957,21.1490533,-0.35,-0.02,-1.6,-27.2,26.8,-10.4,4
18.05,45.8848,-0.7501,0.0148,-136.1674,22.0133,51.41774524,21.14904752,-0.28,-0.1,-1.6,-26.3,30.9,-11.1,4
18.1,45.8667,-0.7348,0.0374,-137.8767,22.4712,51.41774073,21.14904186,-0.35,-0.1,-1.62,-26.9,30.1,-10.8,4
18.15,45.9061,-0.7312,0.0566,-139.6961,22.6288,51.41773601,21.14903653,-0.25,-0.09,-1.67,-22.6,28,-11.5,4
18.2,45.9224,-0.7287,0.0619,-141.1371,22.7583,51.41773129,21.14903123,-0.12,-0.02,-1.66,-23.5,22.5,-9.7,4
18.25,46.2069,-0.7136,0.0487,-142.4748,23.4334,51.41772647,21.14902594,-0.04,-0.01,-1.57,-25.9,19.5,-8.5,4
18.3,46.2815,-0.7192,0.027,-143.7383,23.3197,51.41772154,21.14902089,0,0.01,-1.57,-27,18.5,-7.3,4
18.35,45.9826,-0.739,0.0266,-145.1782,22.5664,51.4177167,21.14901626,0,0.01,-1.56,-28.3,19.8,-7.5,4
18.4,45.9163,-0.7393,0.0306,-147.1828,22.5396,51.41771161,21.14901196,-0.05,0.06,-1.58,-27.9,22,-8.5,4
18.45,46.2463,-0.7221,0.0706,-149.5184,23.2638,51.41770621,21.14900798,-0.16,0.02,-1.62,-25.3,24.3,-9.9,4
18.5,46.6281,-0.7273,0.1003,-151.1965,23.346,51.41770073,21.14900403,-0.07,-0.06,-1.69,-22.1,23.7,-9.2,4
18.55,46.696,-0.7274,0.1266,-152.4173,23.4611,51.41769523,21.14900015,-0.16,-0.13,-1.63,-23.8,19.1,-7.3,4
18.6,46.8139,-0.7239,0.1348,-153.5824,23.7435,51.41768979,21.14899648,-0.19,-0.17,-1.57,-26,18.3,-5.3,4
18.65,46.8389,-0.7414,0.1201,-154.8445,23.3059,51.41768416,21.14899307,-0.24,-0.13,-1.57,-30.1,20,-4.5,4
18.7,47.2214,-0.7477,0.095,-156.8605,23.394,51.41767834,21.14899015,-0.22,-0.1,-1.6,-31.2,23.9,-6.4,4
18.75,47.4822,-0.7673,0.1044,-158.3663,22.9994,51.41767254,21.1489872,-0.16,-0.11,-1.59,-28.9,25.4,-9.1,4
18.8,47.7289,-0.7918,0.0952,-160.0706,22.4831,51.41766665,21.14898467,-0.07,-0.03,-1.76,-25.7,23.3,-10.6,4
18.85,47.9884,-0.8266,0.0867,-161.9472,21.7214,51.41766063,21.14898259,-0.16,0,-1.77,-24.8,19.7,-11.5,4
18.9,47.8026,-0.8707,0.1083,-163.7513,20.6023,51.41765476,21.14898077,-0.21,0.04,-1.68,-24.3,20.8,-11.6,4
18.95,47.7357,-0.876,0.1707,-165.9005,20.5299,51.41764868,21.14897953,-0.19,0.05,-1.66,-24.1,23.4,-11.3,4
19,48.1737,-0.8312,0.1941,-167.8798,21.9645,51.41764248,21.14897833,0.04,0.03,-1.66,-23.7,23.7,-10.6,4
19.05,48.735,-0.7626,0.1891,-169.3117,24.3849,51.41763621,21.14897694,0.09,0.03,-1.64,-24.7,18.2,-10.1,4
19.1,49.3776,-0.7277,0.1815,-170.5428,26.059,51.41762981,21.14897577,0.07,0,-1.58,-25.8,16,-10.6,4
19.15,49.5357,-0.6941,0.1905,-171.8454,27.5822,51.41762364,21.14897495,-0.01,-0.03,-1.64,-26.6,15.1,-11.5,4
19.2,49.7374,-0.6769,0.2068,-173.1696,28.584,51.4176173,21.14897426,-0.02,0.01,-1.68,-24.9,16.6,-13.4,4
19.25,50.1247,-0.6513,0.196,-174.5249,30.1543,51.41761094,21.14897403,-0.03,0.03,-1.64,-23.8,17.5,-14.7,4
19.3,50.398,-0.6602,0.1806,-175.8996,30.1133,51.41760454,21.14897385,0.14,0.02,-1.62,-22.6,17.4,-15.7,4
19.35,50.5861,-0.6832,0.1642,-177.3324,29.3832,51.41759813,21.1489742,0.03,0,-1.57,-20.7,17.1,-16.1,4
19.4,50.7777,-0.69,0.1331,-178.8923,29.3619,51.41759174,21.14897488,0.05,-0.01,-1.64,-19.2,17.6,-16.3,4
19.45,51.1685,-0.7158,0.1361,152.3998,28.646,51.41758525,21.14897594,0.11,-0.01,-1.58,-19.4,15.5,-15.8,4
19.5,51.5038,-0.7391,0.1664,178.2086,28.0496,51.41757878,21.14897693,-0.07,-0.05,-1.61,-19.5,16.7,-15.7,4
19.55,51.7437,-0.7073,0.1895,177.0557,29.6145,51.4175723,21.1489781,0.06,-0.03,-1.72,-20,17.9,-15.1,4
19.6,51.9052,-0.6845,0.1819,175.4939,30.8908,51.41756587,21.14898001,0.15,0,-1.6,-19.7,18.1,-15.4,4
19.65,52.2239,-0.6882,0.1485,174.231,31.0959,51.41755937,21.14898182,0.02,-0.03,-1.61,-18.1,19.6,-15.4,4
19.7,52.512,-0.7181,0.1187,173.0063,30.1053,51.41755288,21.14898391,0,0,-1.72,-17.7,17.6,-14.3,4
19.75,52.6731,-0.758,0.0879,171.6962,28.7149,51.41754638,21.14898615,0.17,0,-1.69,-18.6,15.2,-12.9,4
19.8,52.9939,-0.79,0.0445,169.902,27.7895,51.41754001,21.14898912,0.35,-0.06,-1.57,-19.6,15.5,-11.6,4
19.85,52.9027,-0.8221,0.0246,168.2576,26.6885,51.41753382,21.14899229,0.14,-0.08,-1.48,-22.2,14.8,-10.9,4
19.9,52.7678,-0.8399,0.0064,166.8947,26.0674,51.4175276,21.14899554,0.01,-0.04,-1.59,-21.5,15.7,-12.4,4
19.95,52.6279,-0.8343,0.0188,165.2226,26.1698,51.4175215,21.14899932,0.1,0.02,-1.68,-20.9,15.7,-13.7,4
20,52.6922,-0.8187,0.0353,163.1224,26.7095,51.41751542,21.1490038,0.27,-0.04,-1.67,-18.9,17.9,-16,4
20.05,52.8319,-0.8191,0.0593,161.559,26.7924,51.41750922,21.1490082,0.42,-0.03,-1.67,-16.7,18.6,-17.1,4
20.1,52.9031,-0.8278,0.0964,160.2238,26.5957,51.41750314,21.14901262,0.41,-0.03,-1.58,-14.8,16.4,-16.8,4
20.15,53.1643,-0.8024,0.1409,159.1534,27.6596,51.41749697,21.14901721,0.38,-0.04,-1.59,-13.8,18.2,-15.3,4
20.2,53.6587,-0.7827,0.1852,157.8832,28.7496,51.41749076,21.14902218,0.36,-0.02,-1.57,-15.2,18.5,-12.9,4
20.25,54.0606,-0.7742,0.228,156.0506,29.4561,51.41748458,21.14902774,0.32,0.02,-1.48,-17.7,15.3,-11.5,4
20.3,54.3555,-0.7936,0.2729,154.5533,29.1089,51.41747858,21.14903335,0.17,-0.02,-1.42,-19.1,16.1,-11.5,4
20.35,55.0344,-0.803,0.29,152.7611,29.3823,51.41747245,21.14903997,0.19,0.01,-1.45,-18.8,18.4,-12.1,4
20.4,55.4644,-0.7929,0.2775,151.26,30.2631,51.4174664,21.14904645,0.18,0.02,-1.48,-17.5,16.4,-12.9,4
20.45,55.6579,-0.7891,0.2707,149.8765,30.7775,51.41746048,21.14905298,0.22,-0.01,-1.49,-15.7,16.5,-13.6,4
20.5,56.2217,-0.7872,0.2639,148.8001,31.4271,51.41745442,21.14905986,0.36,0.02,-1.49,-15.4,18.2,-13.2,4
20.55,56.7215,-0.727,0.2241,147.3037,34.6036,51.41744862,21.14906686,0.43,0.05,-1.53,-15.9,17.1,-13.3,4
20.6,57.0361,-0.6635,0.1593,146.0831,38.3811,51.41744285,21.14907393,0.48,0.02,-1.54,-15.6,16.4,-13.4,4
20.65,57.3376,-0.606,0.0971,144.9077,42.4457,51.41743709,21.14908122,0.48,-0.01,-1.6,-15.4,16.1,-12.7,4
20.7,57.2994,-0.5864,0.0523,143.868,43.9537,51.41743154,21.14908855,0.49,-0.01,-1.73,-16,15.8,-12.1,4
20.75,57.2578,-0.594,0.0115,143.0115,43.4193,51.41742597,21.14909579,0.41,-0.06,-1.71,-17.3,11.6,-11.6,4
20.8,57.1952,-0.596,-0.0233,142.0218,43.225,51.4174206,21.14910325,0.28,-0.07,-1.66,-17.9,10.2,-12,4
20.85,57.1776,-0.6118,-0.0251,140.927,42.0578,51.41741542,21.14911077,0.15,-0.02,-1.61,-17.5,12.9,-13.5,4
20.9,56.9416,-0.6,-0.0403,139.7737,42.6676,51.41741027,21.14911856,0.23,0.02,-1.53,-16.5,15.2,-17,4
20.95,56.8765,-0.6026,-0.0333,138.5935,42.3794,51.41740522,21.14912669,0.37,0.03,-1.48,-14.3,14.1,-20.2,4
21,57.0337,-0.6213,0.0083,137.3728,41.1719,51.4174002,21.14913511,0.5,-0.01,-1.57,-11.1,13,-22.4,4
21.05,57.1646,-0.6675,0.0617,136.3437,38.4156,51.41739527,21.14914361,0.47,-0.03,-1.61,-8.8,11.2,-22.7,4
21.1,57.3977,-0.6622,0.1222,135.2428,38.9592,51.41739035,21.14915245,0.38,-0.05,-1.64,-7,11.7,-22.6,4
21.15,57.5414,-0.6717,0.1719,134.1985,38.6488,51.41738554,21.14916142,0.2,-0.03,-1.59,-6.8,9.1,-21.4,4
21.2,57.9072,-0.6688,0.2027,132.9916,39.2713,51.41738083,21.14917085,0.18,-0.03,-1.48,-7.5,5.8,-19.5,4
21.25,58.1474,-0.6527,0.2278,131.8595,40.6528,51.41737613,21.14918044,0.33,-0.05,-1.4,-7,3.4,-16.9,4
21.3,58.7507,-0.6344,0.2449,130.5887,42.5473,51.41737154,21.14919073,0.48,-0.02,-1.42,-8.1,2,-13.9,4
21.35,59.2804,-0.6115,0.2403,129.2982,44.8636,51.41736701,21.14920111,0.42,-0.05,-1.54,-11.3,2.6,-12.3,4
21.4,59.6735,-0.5867,0.223,128.4039,47.4031,51.41736248,21.14921132,0.33,-0.05,-1.57,-13.7,3.6,-12.8,4
21.45,60.0512,-0.5567,0.2136,127.7715,50.6015,51.41735803,21.1492215,0.44,0,-1.43,-12.7,3.4,-14.6,4
21.5,60.3076,-0.5554,0.2052,126.6418,51.249,51.41735368,21.14923188,0.55,-0.04,-1.46,-9.4,7.8,-17,4
21.55,60.4502,-0.5499,0.1725,125.6818,52.1879,51.41734947,21.14924225,0.52,-0.04,-1.55,-6.5,6.5,-17.6,4
21.6,60.7384,-0.5407,0.1475,124.9874,53.5867,51.4173452,21.14925267,0.37,-0.09,-1.54,-6.1,4.3,-16.6,4
21.65,61.0702,-0.531,0.1258,124.2245,55.0905,51.41734108,21.14926316,0.43,-0.05,-1.38,-5,2.9,-13.6,4
21.7,61.1998,-0.518,0.1204,123.2357,56.8008,51.41733713,21.14927415,0.51,-0.01,-1.3,-6.9,1.2,-9.8,4
21.75,61.5176,-0.5067,0.1237,122.1992,58.5608,51.41733324,21.14928508,0.45,-0.03,-1.38,-10.2,1.7,-8.5,4
21.8,61.8879,-0.5015,0.1414,121.2435,59.7393,51.41732941,21.14929611,0.46,-0.04,-1.34,-12.3,2.9,-9.7,4
21.85,61.9228,-0.4951,0.1541,120.2827,60.7842,51.41732573,21.14930709,0.59,-0.03,-1.31,-10.7,4.8,-12.7,4
21.9,62.1576,-0.4527,0.1555,119.7111,67.0175,51.41732213,21.14931818,0.59,0,-1.35,-6.2,4.5,-14.6,4
21.95,62.4633,-0.4077,0.1485,119.4254,75.1075,51.41731831,21.14932937,0.58,-0.02,-1.35,-4,2.3,-13.6,4
22,62.7969,-0.3847,0.1466,118.813,80.3483,51.41731463,21.14934075,0.68,-0.08,-1.36,-6.4,-1.5,-10.9,4
22.05,63.0228,-0.357,0.1363,118.1275,87.2505,51.41731107,21.14935211,0.59,-0.05,-1.25,-11.5,-4.1,-9.6,4
22.1,63.3092,-0.3192,0.1462,117.4592,98.4203,51.41730765,21.14936357,0.65,0.06,-1.24,-12,-0.4,-13.4,4
22.15,63.6044,-0.3222,0.1586,116.8058,98.34,51.41730422,21.14937513,0.72,0.09,-1.3,-7.1,1.3,-18.9,4
22.2,63.8201,-0.3226,0.1561,116.3933,98.9932,51.41730081,21.14938672,0.79,0.02,-1.31,-1.6,0.4,-23,4
22.25,63.9893,-0.3103,0.1635,116.0313,103.6494,51.41729742,21.14939833,0.78,-0.11,-1.28,1.9,-2.6,-21.7,4
22.3,64.3633,-0.3091,0.1721,115.5939,105.13,51.41729405,21.14941021,0.71,-0.13,-1.27,1.2,-1.7,-17.5,4
22.35,64.7003,-0.3053,0.182,115.0182,107.4892,51.41729082,21.14942224,0.76,-0.06,-1.29,-1.5,-2.5,-15.7,4
22.4,65.0536,-0.2805,0.181,114.4492,118.1873,51.4172876,21.14943426,0.78,0.04,-1.27,-1.3,-3.4,-17.5,4
22.45,65.4542,-0.2518,0.1779,114.1033,133.1572,51.4172844,21.1494464,0.8,0,-1.27,4,-2.7,-18.3,4
22.5,65.7186,-0.2533,0.1877,113.7567,133.545,51.41728121,21.14945856,0.85,-0.04,-1.26,7,-3.2,-13.9,4
22.55,65.9227,-0.2414,0.1803,113.5404,141.2542,51.41727796,21.14947077,0.93,-0.06,-1.23,4.5,-3.9,-6.4,4
22.6,66.2995,-0.2188,0.1909,113.1277,157.5024,51.41727479,21.14948313,0.91,-0.09,-1.21,-3.1,-3.6,0.3,4
22.65,66.8297,-0.2087,0.186,112.6451,167.2711,51.41727173,21.14949562,0.87,-0.1,-1.26,-10.3,-0.8,3,4
22.7,67.0154,-0.1915,0.1709,112.1848,183.6785,51.41726873,21.14950812,0.81,-0.07,-1.27,-12.4,0.9,2,4
22.75,67.1027,-0.1882,0.1635,112.1268,188.022,51.4172656,21.14952053,0.81,-0.06,-1.28,-12.1,2.8,-0.9,4
22.8,67.4027,-0.2032,0.1613,111.9034,175.68,51.41726257,21.14953305,0.85,-0.1,-1.26,-9.8,3.9,-4,4
22.85,67.929,-0.2313,0.1575,111.6264,156.2161,51.41725948,21.14954571,0.84,-0.06,-1.21,-7.6,3.9,-5.2,4
22.9,68.2274,-0.2456,0.1503,111.3594,148.3702,51.41725644,21.14955849,0.81,0,-1.18,-6.9,4.2,-5.7,4
22.95,68.4379,-0.2605,0.1533,110.8489,140.8193,51.41725357,21.14957146,0.8,-0.01,-1.22,-7.3,4.2,-6,4
23,68.5755,-0.2755,0.1583,110.2248,133.9869,51.41725087,21.14958449,0.82,-0.04,-1.21,-7.8,1.9,-7.3,4
23.05,68.7729,-0.2883,0.1576,109.7968,128.9208,51.41724803,21.14959751,0.93,-0.06,-1.17,-7.5,2.1,-9.4,4
23.1,69.2169,-0.3129,0.1779,109.4484,120.0398,51.4172453,21.14961098,0.99,-0.11,-1.21,-5.7,3.1,-11.5,4
23.15,69.4578,-0.3297,0.1932,108.9886,114.8354,51.41724262,21.14962423,1.01,-0.09,-1.2,-6,5,-13.8,4
23.2,69.851,-0.3263,0.1774,108.5837,117.2743,51.41723992,21.14963762,0.92,-0.11,-1.24,-5.3,6.2,-16.4,4
23.25,70.1154,-0.2885,0.1534,108.1507,133.7368,51.41723737,21.14965119,0.81,-0.12,-1.25,-2.9,4.4,-19.1,4
23.3,70.5768,-0.2667,0.1507,107.7365,146.1505,51.41723482,21.14966485,0.8,-0.08,-1.25,1.7,1.1,-22.5,4
23.35,70.8459,-0.2373,0.1579,107.32,165.5328,51.41723239,21.14967864,0.79,-0.07,-1.24,6.8,-0.1,-25.1,4
23.4,70.9109,-0.2267,0.1421,107.0238,174.0926,51.41722989,21.1496923,0.91,-0.07,-1.22,10.1,-0.6,-25.3,4
23.45,71.1298,-0.2219,0.1143,106.6852,179.0115,51.41722747,21.149706,0.79,-0.11,-1.19,10.6,1.4,-23.4,4
23.5,71.286,-0.2039,0.0914,106.4286,195.8602,51.41722505,21.14971973,0.79,-0.11,-1.21,10.7,3.2,-20.1,4
23.55,71.2924,-0.1723,0.0714,106.2115,232.2394,51.41722266,21.14973341,0.62,-0.1,-1.19,8.4,2,-14.6,4
23.6,71.5331,-0.1383,0.0771,106.0606,290.9093,51.41722019,21.14974727,0.66,-0.11,-1.21,4.3,3.7,-9.4,4
23.65,71.803,-0.1239,0.0762,105.8283,326.5624,51.41721787,21.14976121,0.62,-0.06,-1.2,0.7,2.5,-6.4,4
23.7,72.0061,-0.1069,0.0846,105.5966,380.1998,51.41721557,21.14977529,0.56,-0.11,-1.23,-0.4,-0.7,-5.3,4
23.75,72.0037,-0.0892,0.0975,105.4131,456.8391,51.41721312,21.14978932,0.69,-0.07,-1.21,0.7,-1.6,-4.7,4
23.8,72.0752,-0.0813,0.1061,105.4535,502.7791,51.41721068,21.14980317,0.53,-0.17,-1.25,0.4,-2.8,-3.3,4
23.85,72.2491,-0.0814,0.0929,105.3925,504.6349,51.41720829,21.14981714,0.59,-0.16,-1.18,-0.5,-2.7,-2.4,4
23.9,72.5838,-0.0698,0.0704,105.2358,592.509,51.41720596,21.14983149,0.49,-0.2,-1.15,-0.1,-1.2,-1.5,4
23.95,72.7545,-0.0787,0.0566,105.0603,527.824,51.41720367,21.14984562,0.6,-0.13,-1.13,0.3,-0.6,0.2,4
24,72.829,-0.0922,0.0517,104.9346,451.1878,51.41720129,21.14985975,0.47,-0.14,-1.18,-0.8,1.1,2.3,4
24.05,72.7889,-0.1216,0.0441,104.8269,342.5055,51.41719903,21.14987386,0.53,-0.11,-1.2,-2.4,2.3,4.9,4
24.1,72.8212,-0.1231,0.0458,104.7138,338.9037,51.41719671,21.14988793,0.52,-0.07,-1.15,-4.5,1.7,7.7,4
24.15,72.8227,-0.1354,0.0554,104.4745,308.5282,51.41719452,21.14990193,0.59,-0.09,-1.14,-7.7,0.2,9.6,4
24.2,72.7414,-0.14,0.0282,104.2242,298.2742,51.41719236,21.14991594,0.73,-0.08,-1.09,-9.7,-1.8,10,4
24.25,72.8828,-0.1408,-0.0305,104.0624,297.4936,51.41719021,21.14993009,0.82,-0.14,-1.05,-7.4,-4.9,9.3,4
24.3,72.9667,-0.1343,-0.0881,103.8137,311.9887,51.41718806,21.14994437,0.86,-0.1,-1.04,-6.1,-10.2,8.2,4
24.35,72.8493,-0.1281,-0.1424,103.5662,325.6574,51.41718593,21.1499586,1.16,-0.07,-1.12,-5.4,-10.7,8.3,4
24.4,72.5416,-0.1301,-0.1971,103.5053,318.2675,51.41718383,21.14997271,1.62,-0.04,-1.12,-3.6,-8.9,10.4,4
24.45,71.8486,-0.1177,-0.2662,103.4638,346.8073,51.41718166,21.14998649,1.78,0.01,-1.05,-4.6,-6.1,14.6,4
24.5,71.22,-0.1213,-0.3541,103.3398,331.0995,51.41717968,21.15000006,1.46,-0.02,-1.04,-11.3,-2.9,18.4,4
24.55,70.2912,-0.1378,-0.4137,102.9141,285.0171,51.41717785,21.15001358,0.89,-0.1,-1.04,-15.2,-4.1,20,4
24.6,69.3283,-0.1539,-0.4426,102.7024,249.1077,51.41717594,21.15002686,0.65,-0.06,-1,-16.8,-4.6,19.7,4
24.65,68.8367,-0.1796,-0.455,102.4456,209.6139,51.41717411,21.15004012,0.73,0.05,-1.05,-16.7,-2.1,16.4,4
24.7,68.1184,-0.1966,-0.4658,102.326,187.344,51.41717229,21.15005331,0.62,0.04,-1.01,-14.6,-2.5,12.5,4
24.75,67.2956,-0.1995,-0.4544,102.0115,180.1543,51.4171706,21.15006632,0.57,0.03,-0.92,-10.5,-0.5,10.9,4
24.8,66.4844,-0.2179,-0.4357,101.5848,161.0278,51.41716905,21.15007927,0.59,0.03,-0.91,-5.7,0.5,13.1,4
24.85,65.6653,-0.235,-0.4325,101.083,145.8432,51.41716755,21.15009211,0.61,0.04,-0.92,-8.3,0.1,18.7,4
24.9,65.1354,-0.2437,-0.4185,100.6827,137.8604,51.4171661,21.15010481,0.58,-0.01,-0.96,-18,-0.1,22.5,4
24.95,64.4543,-0.2504,-0.4215,100.5576,131.2762,51.41716456,21.15011732,0.41,-0.09,-0.92,-23.2,0.2,22.4,4
25,63.3917,-0.2878,-0.4312,100.119,111.0073,51.41716328,21.1501295,0.31,-0.11,-0.97,-21.7,3.9,21,4
25.05,62.3954,-0.3418,-0.4427,99.6617,90.9321,51.41716203,21.1501414,0.24,-0.05,-1,-21.3,5.9,20.3,4
25.1,61.752,-0.3536,-0.4442,99.0295,85.9054,51.41716098,21.15015352,0.22,0.02,-0.91,-22,6.2,19.3,4
25.15,61.1847,-0.379,-0.4277,98.2664,78.4245,51.41716007,21.15016549,0.14,0.02,-0.82,-21.9,3.2,19.3,4
25.2,60.446,-0.402,-0.4418,97.543,72.147,51.41715918,21.15017715,-0.21,-0.05,-0.81,-22.8,2.8,20.2,4
25.25,59.7014,-0.4272,-0.4682,96.9558,66.195,51.41715839,21.15018881,-0.13,-0.07,-0.95,-25.2,6.9,20,4
25.3,58.8465,-0.4735,-0.4687,96.108,58.058,51.41715783,21.15020009,-0.18,0,-0.9,-27.1,8.9,18.5,4
25.35,57.7798,-0.4923,-0.4786,95.1955,54.051,51.41715736,21.15021123,-0.29,-0.04,-0.98,-26.1,11.9,16,4
25.4,57.0469,-0.5099,-0.4819,94.402,50.7766,51.41715691,21.15022238,-0.24,-0.05,-1.01,-25.8,13.7,15,4
25.45,56.1667,-0.5218,-0.4969,93.6024,48.1314,51.41715653,21.15023325,-0.19,-0.02,-0.97,-27.6,14.1,15.2,4
25.5,55.1305,-0.5714,-0.5229,92.5769,42.4631,51.41715643,21.15024395,-0.11,0,-1,-30.8,15.9,14.1,4
25.55,54.2073,-0.6007,-0.4887,91.357,39.064,51.41715651,21.15025439,-0.13,-0.01,-1.09,-32.3,16.3,11.5,4
25.6,53.5792,-0.6124,-0.4238,90.3429,37.2728,51.41715663,21.15026483,-0.19,-0.03,-1.13,-30.9,17.4,8.4,4
25.65,52.8429,-0.6353,-0.3679,88.9668,34.9516,51.417157,21.15027529,-0.2,-0.04,-1.16,-28,17.5,6.8,4
25.7,52.2257,-0.623,-0.3292,87.7145,34.7962,51.41715744,21.15028543,-0.09,-0.08,-1.19,-26.9,15.7,6.4,4
25.75,51.502,-0.6144,-0.3233,86.4824,34.4077,51.41715805,21.15029557,-0.15,-0.07,-1.14,-30.8,10.3,7.4,4
25.8,51.1763,-0.6235,-0.3303,85.1753,33.3146,51.41715886,21.15030569,-0.38,-0.01,-1.04,-35.6,15.2,4.3,4
25.85,50.673,-0.6337,-0.3439,84.1723,32.0833,51.41715966,21.15031547,-0.35,0.06,-1.12,-32,23.8,-1.5,4
25.9,50.2745,-0.6517,-0.3302,83.1464,30.5774,51.41716038,21.15032515,-0.36,-0.02,-1.12,-24.8,27,-3.8,4
25.95,49.5252,-0.6429,-0.3335,81.9166,30.1767,51.41716147,21.15033471,-0.28,-0.06,-1.23,-19,27,0,4
26,48.4956,-0.6572,-0.3571,80.1659,28.5534,51.4171628,21.15034388,-0.31,-0.09,-1.29,-26.9,24.6,5.9,4
26.05,47.7746,-0.6828,-0.3702,78.7845,26.7223,51.41716413,21.15035295,-0.14,-0.07,-1.32,-36.1,20.8,9.1,4
26.1,47.1368,-0.7168,-0.3335,77.1549,24.772,51.41716577,21.15036189,-0.31,-0.03,-1.16,-42.9,19.2,8.1,4
26.15,46.7651,-0.7585,-0.2953,75.3165,22.9351,51.41716759,21.15037066,-0.41,0.01,-1.17,-43.6,26.9,3.3,4
26.2,46.5448,-0.788,-0.2599,73.9682,21.7284,51.4171694,21.15037939,-0.47,0.06,-1.25,-42.1,34.3,-2.9,4
26.25,46.1382,-0.805,-0.221,72.3776,20.8714,51.4171713,21.15038796,-0.41,0.04,-1.33,-34.5,39.9,-8.5,4
26.3,45.5159,-0.8192,-0.1924,70.7807,20.0579,51.41717344,21.15039624,-0.33,-0.01,-1.38,-29.3,37.4,-11,4
26.35,45.018,-0.8156,-0.2065,68.8247,19.7701,51.41717568,21.15040415,-0.32,-0.05,-1.38,-27.8,29.2,-11.2,4
26.4,44.9177,-0.8321,-0.2142,66.4778,19.1694,51.41717833,21.15041204,-0.33,-0.08,-1.34,-28.6,25.8,-9.6,4
26.45,44.8079,-0.8679,-0.2466,64.6271,18.1728,51.41718112,21.15041984,-0.39,-0.06,-1.28,-33.7,25.5,-8.3,4
26.5,44.2231,-0.9189,-0.2708,62.7577,16.7633,51.41718384,21.15042722,-0.3,-0.02,-1.31,-35.8,27.8,-9.5,4
26.55,43.2754,-0.9378,-0.2615,60.7096,15.8923,51.41718661,21.15043423,-0.41,0,-1.35,-33.5,31.4,-11.7,4
26.6,42.7115,-0.9565,-0.2371,58.4039,15.208,51.41718964,21.15044095,-0.33,0.03,-1.33,-29.3,34.8,-13.9,4
26.65,42.305,-0.954,-0.1986,55.9254,14.9491,51.41719295,21.15044753,-0.28,0.02,-1.34,-27.6,30.9,-13.9,4
26.7,41.8787,-0.9025,-0.1682,53.7776,15.5076,51.41719638,21.15045407,-0.32,-0.05,-1.38,-25.3,27.9,-13,4
26.75,42.0179,-0.9007,-0.1654,51.6584,15.4732,51.4171999,21.15046042,-0.23,-0.08,-1.44,-28.6,28.1,-10.7,4
26.8,41.6953,-0.9031,-0.1635,49.473,15.199,51.41720353,21.15046645,-0.3,-0.05,-1.4,-35,27,-9.8,4
26.85,41.4912,-0.9296,-0.1422,47.3495,14.5836,51.41720722,21.15047216,-0.47,-0.01,-1.29,-35.9,29.8,-10.7,4
26.9,41.3332,-0.9632,-0.1052,45.2257,13.9307,51.41721106,21.15047769,-0.49,0.04,-1.27,-35.3,34.8,-12.8,4
26.95,40.9235,-0.9632,-0.1101,42.8832,13.7216,51.41721502,21.15048271,-0.48,0.07,-1.26,-32,36.8,-14.3,4
27,40.5086,-0.973,-0.1456,40.5773,13.3715,51.4172191,21.1504875,-0.31,0.03,-1.41,-29.1,35.9,-14.1,4
27.05,40.0709,-0.9936,-0.1888,37.9715,12.8609,51.4172232,21.15049188,-0.17,-0.04,-1.51,-30.4,30.7,-12.3,4
27.1,39.8916,-0.9948,-0.1801,34.7577,12.6737,51.41722771,21.15049595,-0.19,-0.08,-1.47,-32.8,26.5,-10.2,4
27.15,39.6217,-0.9964,-0.1617,32.2399,12.4591,51.4172321,21.15049965,-0.28,-0.05,-1.44,-36.1,28.7,-9.6,4
27.2,39.4655,-0.9649,-0.1466,29.8204,12.716,51.41723651,21.15050313,-0.35,-0.04,-1.34,-36.7,34.5,-10.5,4
27.25,39.034,-0.9165,-0.1138,27.8574,13.145,51.41724081,21.15050651,-0.32,-0.02,-1.38,-35.3,39,-11.1,4
27.3,38.5863,-0.8886,-0.1475,25.7918,13.3223,51.41724504,21.15050938,-0.32,0.04,-1.4,-35.6,39.3,-11.8,4
27.35,38.3125,-0.8502,-0.1632,23.6347,13.7219,51.41724946,21.15051187,-0.37,-0.02,-1.35,-35.8,37.2,-11.7,4
27.4,38.1269,-0.813,-0.1736,21.2421,14.1651,51.4172539,21.15051414,-0.33,-0.06,-1.44,-37.4,35.3,-11,4
27.45,37.9635,-0.8147,-0.196,18.9576,13.9531,51.41725836,21.15051606,-0.25,-0.08,-1.56,-39.7,34.9,-11.2,4
27.5,37.6885,-0.8436,-0.2022,16.642,13.2465,51.41726288,21.15051763,-0.21,-0.05,-1.62,-38.9,36,-12.2,4
27.55,37.1083,-0.8994,-0.1812,14.2904,12.1088,51.41726727,21.15051876,-0.2,0.02,-1.59,-37.5,37.7,-14.6,4
27.6,36.5998,-0.9643,-0.1123,11.7344,11.039,51.41727161,21.15051971,-0.26,0.01,-1.5,-37.3,39.5,-17.4,4
27.65,36.3854,-0.9913,-0.067,9.1031,10.6115,51.41727606,21.15052021,-0.23,0.05,-1.55,-34.4,39.9,-19.3,4
27.7,36.2869,-0.9749,-0.0371,6.4392,10.7185,51.41728067,21.15052047,-0.2,0.08,-1.56,-30.6,38.7,-19.8,4
27.75,36.5303,-0.9506,-0.0068,3.8096,11.0391,51.41728532,21.15052036,-0.18,-0.03,-1.5,-29.9,36.6,-18.8,4
27.8,36.5781,-0.9382,0.0189,0.632,11.1875,51.41728987,21.15051964,-0.16,-0.07,-1.6,-30.6,34.5,-17.2,4
27.85,36.7804,-0.9483,0.0606,-2.1343,11.132,51.41729458,21.15051878,-0.11,-0.02,-1.65,-29.8,33.4,-15.1,4
27.9,36.9656,-0.9541,0.1014,-4.4046,11.1465,51.41729918,21.15051767,-0.11,-0.05,-1.53,-32.4,33.7,-13.3,4
27.95,37.0301,-0.9628,0.121,-6.5952,11.1105,51.41730378,21.1505163,-0.16,-0.04,-1.53,-36.7,34.5,-12.9,4
28,36.8575,-0.9654,0.141,-9.0154,11.0851,51.4173082,21.15051465,-0.08,0.06,-1.59,-37.8,34,-14.5,4
28.05,36.7286,-0.9811,0.1339,-11.6545,10.9341,51.41731252,21.1505125,-0.17,0.01,-1.5,-36.7,31.6,-16.8,4
28.1,37.407,-0.9673,0.135,-14.5125,11.3572,51.4173171,21.15050985,-0.22,-0.01,-1.57,-35.5,33.2,-18.4,4
28.15,37.9409,-0.9578,0.1527,-17.7975,11.6992,51.41732169,21.15050662,-0.12,0.04,-1.62,-32.8,33.8,-19.1,4
28.2,38.152,-0.9027,0.1552,-20.4457,12.5627,51.41732606,21.15050336,-0.19,-0.04,-1.57,-29.7,34.9,-21.1,4
28.25,38.4698,-0.8422,0.1503,-22.4337,13.6668,51.41733043,21.15049991,-0.12,-0.02,-1.71,-29.6,34,-22.9,4
28.3,38.5369,-0.839,0.1436,-24.3567,13.8293,51.41733459,21.15049644,-0.25,0.01,-1.69,-32.1,31.1,-24.8,4
28.35,38.7659,-0.8089,0.1276,-26.3473,14.5158,51.41733876,21.15049255,-0.26,-0.07,-1.71,-26.6,32.9,-26.4,4
28.4,38.7135,-0.7694,0.1063,-28.4587,15.3205,51.41734276,21.15048839,-0.2,0.01,-1.69,-22.4,31.8,-25.2,4
28.45,38.7113,-0.7601,0.0833,-30.1233,15.5739,51.4173467,21.15048425,-0.21,-0.01,-1.56,-20.4,28.5,-23,4
28.5,38.9287,-0.7673,0.063,-32.0842,15.5629,51.41735067,21.15047958,-0.26,0.06,-1.61,-21.4,26.1,-20.1,4
28.55,39.0357,-0.7875,0.071,-34.2069,15.2401,51.41735443,21.1504746,-0.21,0.01,-1.56,-24.4,25.5,-17.6,4
28.6,39.3787,-0.7948,0.1368,-36.6339,15.2778,51.41735816,21.1504693,-0.02,-0.07,-1.6,-26.9,26.1,-15.5,4
28.65,39.9115,-0.8363,0.1732,-39.2914,14.8025,51.4173619,21.15046354,-0.05,0.09,-1.67,-31,24.6,-15,4
28.7,40.2212,-0.8581,0.1904,-41.1116,14.6429,51.41736543,21.15045766,-0.2,0.04,-1.62,-31.6,26.8,-17.1,4
28.75,40.2902,-0.841,0.2055,-42.7935,15.0863,51.41736896,21.15045181,-0.21,0.07,-1.72,-29.3,29,-19.1,4
28.8,40.5674,-0.8241,0.2017,-44.962,15.6348,51.41737232,21.15044554,-0.2,0,-1.58,-25.3,28.2,-20.5,4
28.85,40.7814,-0.8161,0.1961,-46.9266,16.0028,51.41737558,21.15043925,-0.07,-0.07,-1.65,-22.6,27.1,-20.5,4
28.9,41.1669,-0.8052,0.1693,-48.8775,16.5011,51.41737884,21.15043256,-0.11,-0.02,-1.66,-23.8,24.1,-19,4
28.95,41.6697,-0.7935,0.1479,-50.9665,17.0598,51.4173819,21.1504256,-0.15,-0.05,-1.7,-24.6,23.8,-18.2,4
29,41.8541,-0.7626,0.1539,-53.1898,17.9358,51.41738476,21.15041845,-0.14,-0.05,-1.57,-26.7,21.3,-17.4,4
29.05,42.0337,-0.749,0.1591,-54.9775,18.4544,51.4173875,21.15041114,-0.11,-0.1,-1.62,-25.8,22.7,-19.2,4
29.1,42.3199,-0.7317,0.1705,-56.2727,19.1388,51.41739023,21.15040393,0.06,0.03,-1.64,-24.5,22.8,-20.2,4
29.15,42.3218,-0.7151,0.1765,-58.0639,19.718,51.4173928,21.1503965,-0.06,0.01,-1.55,-23.8,20.4,-21.7,4
29.2,42.6711,-0.6794,0.1385,-60.0126,21.0711,51.41739518,21.15038871,0.06,0.11,-1.64,-20.5,21.2,-23.4,4
29.25,43.1144,-0.6562,0.0905,-61.3938,22.1612,51.41739751,21.15038087,-0.06,0.07,-1.67,-21.2,17.3,-23,4
29.3,43.2328,-0.6578,0.0759,-62.7896,22.2451,51.4173998,21.15037289,-0.1,0.01,-1.63,-19.9,17.9,-23.9,4
29.35,43.4353,-0.6538,0.0486,-64.1651,22.5423,51.41740192,21.15036485,-0.03,-0.06,-1.66,-19,18.9,-24.3,4
29.4,43.4003,-0.6485,0.0475,-65.8543,22.7486,51.4174038,21.1503567,-0.01,-0.01,-1.55,-18.9,16.5,-25,4
29.45,43.3056,-0.6495,0.0682,-67.5854,22.7,51.41740548,21.15034849,0,0.06,-1.6,-16.2,14.2,-26.5,4
29.5,43.2963,-0.6478,0.0782,-69.1196,22.8135,51.41740707,21.15034008,-0.03,0.06,-1.64,-14.2,12.9,-26.7,4
29.55,43.3817,-0.6341,0.0795,-70.6161,23.4185,51.41740853,21.15033158,-0.03,0.05,-1.73,-12.7,12.1,-26.5,4
